{
    "_comment": "Este objeto nos traera la lista de alumnos de un grupo.",
    "alumnos": [
        {
            "nombre": "Jose",
            "edad": 26,
            "semestre": "Graduado"
        },
        {
            "nombre": "Bryan",
            "edad": 25,
            "semestre": "Octavo"
        },
        {
            "nombre": "David",
            "edad": 21,
            "semestre": "Cuarto"
        },
        {
            "nombre": "Julia",
            "edad": 18,
            "semestre": "Primero"
        }
    ],

    "tiendas":[
        {	
      "id":	44,
      "name":	"Trim Tab Brewing",
      "brewery_type":	"micro",
      "street":	"2721 5th Ave S",
      "city":	"Birmingham",
      "state":	"Alabama",
      "postal_code":	"35233-3401",
      "country":	"United States",
      "longitude":	"-86.7914000624146",
      "latitude":	"33.5128492349817",
      "phone":	"2057030536",
      "website_url":	"http://www.trimtabbrewing.com",
      "updated_at":	"2018-08-23T23:20:31.423Z",
      "tag_list":	[]
    },
        {	
    "id":	46,
    "name":	"Yellowhammer Brewery",
    "brewery_type":	"micro",
    "street":	"2600 Clinton Ave W",
    "city":	"Huntsville",
    "state":	"Alabama",
    "postal_code":	"35805-3046",
    "country":	"United States",
    "longitude":	"-86.5932014",
    "latitude":	"34.7277523",
    "phone":	"2569755950",
    "website_url":	"http://www.yellowhammerbrewery.com",
    "updated_at":	"2018-08-23T23:20:33.102Z",
    "tag_list":	[]
        },
        {	
     "id":	55,
     "name":	"Bearpaw River Brewing Co",
     "brewery_type":	"micro",
     "street":	"4605 E Palmer Wasilla Hwy",
     "city":	"Wasilla",
     "state": "Alaska",
     "postal_code":	"99654-7679",
     "country":	"United States",
     "longitude":	"-149.4127103",
     "latitude":	"61.5752695",
     "phone":	"",
     "website_url":	"http://bearpawriverbrewing.com",
     "updated_at":	"2018-08-23T23:20:40.743Z",
     "tag_list":	[]
        },
        {
  "id":	76,
  "name": "King Street Brewing Co",
  "brewery_type":	"micro",
  "street":"9050 King Street",
  "city":"Anchorage",
  "state":	"Alaska",
  "postal_code":	"99515",
  "country":	"United States",
  "longitude":	"-149.879076042937",
  "latitude":	"61.1384893547315",
  "phone":	"9073365464",
  "website_url":	"http://www.kingstreetbrewing.com",
  "updated_at":	"2018-08-23T23:20:57.179Z",
  "tag_list":	[]
        },
        {
  "id":	94,
  "name":	"1912 Brewing",
  "brewery_type":	"micro",
  "street":	"2045 N Forbes Blvd Ste 105",
  "city":	"Tucson",
  "state":	"Arizona",
  "postal_code":	"85745-1444",
  "country":	"United States",
  "longitude":	"-110.992750525872",
  "latitude":	"32.2467372722906",
  "phone":	"5202564851",
  "website_url":	"http://www.1912brewing.com",
  "updated_at":	"2018-08-23T23:21:11.302Z",
  "tag_list":	[]
        },
        {
  "id":	98,
  "name":	"Bad Water Brewing",
  "brewery_type":	"contract",
  "street":	"4216 N Brown Ave",
  "city":	"Scottsdale",
  "state":	"Arizona",
  "postal_code":	"85251-3914",
  "country":	"United States",
  "longitude":	"-111.924474347826",
  "latitude":	"33.4972615652174",
  "phone":	"5207459175",
  "website_url":	"http://www.badwaterbrewing.com",
  "updated_at":	"2018-08-23T23:21:15.169Z",
  "tag_list":	[]
        },
        {
  "id":	104,
  "name":	"BJs Restaurant & Brewery - Chandler",
  "brewery_type":	"brewpub",
  "street":	"3155 W Chandler Blvd",
  "city":	"Chandler",
  "state":	"Arizona",
  "postal_code":	"85226-5175",
  "country":	"United States",
  "longitude":	"-111.911126",
  "latitude":	"33.3053455",
  "phone":	"4809170631",
  "website_url":	"http://www.bjsrestaurants.com",
  "updated_at":	"2018-08-23T23:21:21.165Z",
  "tag_list":	[]
        },
        {
  "id":	107,
  "name":	"BlackRock Brewers",
  "brewery_type":	"micro",
  "street":	"1664 S Research Loop Ste 200",
  "city":	"Tucson",
  "state":	"Arizona",
  "postal_code":	"85710-6767",
  "country":	"United States",
  "longitude":	"-110.821778571134",
  "latitude":	"32.201608314954",
  "phone":	"5202073203",
  "website_url":	"http://www.brb.beer",
  "updated_at":	"2018-08-23T23:21:23.794Z",
  "tag_list":	[]
        },
        {	
     "id":	127,
     "name":	"Dragoon Brewing Co",
     "brewery_type":	"micro",
     "street":	"1859 W Grant Rd Ste 111",
     "city":	"Tucson",
     "state":	"Arizona",
     "postal_code":	"85745-1214",
     "country":	"United States",
     "longitude":	"-111.005452051979",
     "latitude":	"32.2504946147872",
     "phone":	"5203293606",
     "website_url":	"http://www.dragoonbrewing.com",
     "updated_at":	"2018-08-23T23:21:40.563Z",
     "tag_list":	[]
        },
        {
     "id":	141,
     "name":	"Grand Canyon Brewing Company",
     "brewery_type":	"micro",
     "street":	"233 W Route 66",
     "city":	"Williams",
     "state":	"Arizona",
     "postal_code":	"86046-2530",
     "country":	"United States",
     "longitude":	"-112.1892168",
     "latitude":	"35.2500282",
     "phone":	"8005132072",
     "website_url":	"http://www.grandcanyonbrewingco.com",
     "updated_at":	"2018-08-23T23:21:53.397Z",
     "tag_list":	[]
        }

    ]
}
